{
  "meta": {
    "fase": 2,
    "generado": "2026-06-17T21:33:27+00:00",
    "fuente": "SHF — Índice de Precios de la Vivienda, datos abiertos 1T 2026",
    "geometria": "INEGI — Catálogo Único de Claves (cabecera municipal)",
    "n_municipios": 74,
    "aviso": "Plusvalía: variación anual real de la SHF (1T 2026). Geometría: cabecera municipal (INEGI)."
  },
  "municipios_shf": [
    {
      "municipio": "Solidaridad",
      "estado": "Quintana Roo",
      "cvegeo": "23008",
      "lat": 20.62814,
      "lng": -87.0755,
      "plusvalia": 13.6,
      "ciclo": "Expansión fuerte",
      "oportunidad": "Alta",
      "fuente": "SHF 1T 2026 (municipio, var. anual real)"
    },
    {
      "municipio": "Benito Juárez",
      "estado": "Quintana Roo",
      "cvegeo": "23005",
      "lat": 21.08113,
      "lng": -87.01443,
      "plusvalia": 13.3,
      "ciclo": "Expansión fuerte",
      "oportunidad": "Alta",
      "fuente": "SHF 1T 2026 (municipio, var. anual real)"
    },
    {
      "municipio": "Tlajomulco de Zúñiga",
      "estado": "Jalisco",
      "cvegeo": "14097",
      "lat": 20.47361,
      "lng": -103.44306,
      "plusvalia": 13.0,
      "ciclo": "Expansión fuerte",
      "oportunidad": "Alta",
      "fuente": "SHF 1T 2026 (municipio, var. anual real)"
    },
    {
      "municipio": "Kanasín",
      "estado": "Yucatán",
      "cvegeo": "31041",
      "lat": 20.93464,
      "lng": -89.55806,
      "plusvalia": 12.8,
      "ciclo": "Expansión fuerte",
      "oportunidad": "Alta",
      "fuente": "SHF 1T 2026 (municipio, var. anual real)"
    },
    {
      "municipio": "San Pedro Tlaquepaque",
      "estado": "Jalisco",
      "cvegeo": "14098",
      "lat": 20.63861,
      "lng": -103.30722,
      "plusvalia": 12.4,
      "ciclo": "Expansión fuerte",
      "oportunidad": "Alta",
      "fuente": "SHF 1T 2026 (municipio, var. anual real)"
    },
    {
      "municipio": "Reynosa",
      "estado": "Tamaulipas",
      "cvegeo": "28032",
      "lat": 26.09235,
      "lng": -98.27813,
      "plusvalia": 12.3,
      "ciclo": "Expansión fuerte",
      "oportunidad": "Alta",
      "fuente": "SHF 1T 2026 (municipio, var. anual real)"
    },
    {
      "municipio": "Guadalajara",
      "estado": "Jalisco",
      "cvegeo": "14039",
      "lat": 20.67639,
      "lng": -103.34222,
      "plusvalia": 11.9,
      "ciclo": "Expansión fuerte",
      "oportunidad": "Alta",
      "fuente": "SHF 1T 2026 (municipio, var. anual real)"
    },
    {
      "municipio": "Bahía de Banderas",
      "estado": "Nayarit",
      "cvegeo": "18020",
      "lat": 20.80676,
      "lng": -105.24792,
      "plusvalia": 11.9,
      "ciclo": "Expansión fuerte",
      "oportunidad": "Alta",
      "fuente": "SHF 1T 2026 (municipio, var. anual real)"
    },
    {
      "municipio": "Matamoros",
      "estado": "Tamaulipas",
      "cvegeo": "28022",
      "lat": 25.87992,
      "lng": -97.50482,
      "plusvalia": 11.9,
      "ciclo": "Expansión fuerte",
      "oportunidad": "Alta",
      "fuente": "SHF 1T 2026 (municipio, var. anual real)"
    },
    {
      "municipio": "Aguascalientes",
      "estado": "Aguascalientes",
      "cvegeo": "01001",
      "lat": 21.87982,
      "lng": -102.29605,
      "plusvalia": 11.7,
      "ciclo": "Expansión fuerte",
      "oportunidad": "Alta",
      "fuente": "SHF 1T 2026 (municipio, var. anual real)"
    },
    {
      "municipio": "Tepic",
      "estado": "Nayarit",
      "cvegeo": "18017",
      "lat": 21.50741,
      "lng": -104.8938,
      "plusvalia": 11.7,
      "ciclo": "Expansión fuerte",
      "oportunidad": "Alta",
      "fuente": "SHF 1T 2026 (municipio, var. anual real)"
    },
    {
      "municipio": "Huejotzingo",
      "estado": "Puebla",
      "cvegeo": "21074",
      "lat": 19.15901,
      "lng": -98.40803,
      "plusvalia": 11.7,
      "ciclo": "Expansión fuerte",
      "oportunidad": "Alta",
      "fuente": "SHF 1T 2026 (municipio, var. anual real)"
    },
    {
      "municipio": "Mexicali",
      "estado": "Baja California",
      "cvegeo": "02002",
      "lat": 32.64118,
      "lng": -115.47558,
      "plusvalia": 11.5,
      "ciclo": "Expansión fuerte",
      "oportunidad": "Alta",
      "fuente": "SHF 1T 2026 (municipio, var. anual real)"
    },
    {
      "municipio": "Zapopan",
      "estado": "Jalisco",
      "cvegeo": "14120",
      "lat": 20.72056,
      "lng": -103.38833,
      "plusvalia": 11.5,
      "ciclo": "Expansión fuerte",
      "oportunidad": "Alta",
      "fuente": "SHF 1T 2026 (municipio, var. anual real)"
    },
    {
      "municipio": "La Paz",
      "estado": "Baja California Sur",
      "cvegeo": "03003",
      "lat": 24.14222,
      "lng": -110.31083,
      "plusvalia": 11.2,
      "ciclo": "Expansión fuerte",
      "oportunidad": "Alta",
      "fuente": "SHF 1T 2026 (municipio, var. anual real)"
    },
    {
      "municipio": "Juárez",
      "estado": "Nuevo León",
      "cvegeo": "19031",
      "lat": 25.64623,
      "lng": -100.09088,
      "plusvalia": 11.1,
      "ciclo": "Expansión fuerte",
      "oportunidad": "Alta",
      "fuente": "SHF 1T 2026 (municipio, var. anual real)"
    },
    {
      "municipio": "Tijuana",
      "estado": "Baja California",
      "cvegeo": "02004",
      "lat": 32.53246,
      "lng": -117.01891,
      "plusvalia": 11.0,
      "ciclo": "Expansión fuerte",
      "oportunidad": "Alta",
      "fuente": "SHF 1T 2026 (municipio, var. anual real)"
    },
    {
      "municipio": "Los Cabos",
      "estado": "Baja California Sur",
      "cvegeo": "03008",
      "lat": 23.06159,
      "lng": -109.69475,
      "plusvalia": 10.9,
      "ciclo": "Expansión fuerte",
      "oportunidad": "Alta",
      "fuente": "SHF 1T 2026 (municipio, var. anual real)"
    },
    {
      "municipio": "Jesús María",
      "estado": "Aguascalientes",
      "cvegeo": "01005",
      "lat": 21.96127,
      "lng": -102.34342,
      "plusvalia": 10.7,
      "ciclo": "Expansión fuerte",
      "oportunidad": "Alta",
      "fuente": "SHF 1T 2026 (municipio, var. anual real)"
    },
    {
      "municipio": "Mineral de la Reforma",
      "estado": "Hidalgo",
      "cvegeo": "13051",
      "lat": 20.07237,
      "lng": -98.69603,
      "plusvalia": 10.7,
      "ciclo": "Expansión fuerte",
      "oportunidad": "Alta",
      "fuente": "SHF 1T 2026 (municipio, var. anual real)"
    },
    {
      "municipio": "Mazatlán",
      "estado": "Sinaloa",
      "cvegeo": "25012",
      "lat": 23.20032,
      "lng": -106.42222,
      "plusvalia": 10.7,
      "ciclo": "Expansión fuerte",
      "oportunidad": "Alta",
      "fuente": "SHF 1T 2026 (municipio, var. anual real)"
    },
    {
      "municipio": "Uruapan",
      "estado": "Michoacán",
      "cvegeo": "16102",
      "lat": 19.42089,
      "lng": -102.0628,
      "plusvalia": 10.6,
      "ciclo": "Expansión fuerte",
      "oportunidad": "Alta",
      "fuente": "SHF 1T 2026 (municipio, var. anual real)"
    },
    {
      "municipio": "Morelia",
      "estado": "Michoacán",
      "cvegeo": "16053",
      "lat": 19.70338,
      "lng": -101.19205,
      "plusvalia": 10.5,
      "ciclo": "Expansión fuerte",
      "oportunidad": "Alta",
      "fuente": "SHF 1T 2026 (municipio, var. anual real)"
    },
    {
      "municipio": "Cajeme",
      "estado": "Sonora",
      "cvegeo": "26018",
      "lat": 27.49649,
      "lng": -109.93272,
      "plusvalia": 10.4,
      "ciclo": "Expansión fuerte",
      "oportunidad": "Alta",
      "fuente": "SHF 1T 2026 (municipio, var. anual real)"
    },
    {
      "municipio": "Mérida",
      "estado": "Yucatán",
      "cvegeo": "31050",
      "lat": 20.96718,
      "lng": -89.62436,
      "plusvalia": 10.4,
      "ciclo": "Expansión fuerte",
      "oportunidad": "Alta",
      "fuente": "SHF 1T 2026 (municipio, var. anual real)"
    },
    {
      "municipio": "Juárez",
      "estado": "Chihuahua",
      "cvegeo": "08037",
      "lat": 31.74647,
      "lng": -106.48502,
      "plusvalia": 10.3,
      "ciclo": "Expansión fuerte",
      "oportunidad": "Alta",
      "fuente": "SHF 1T 2026 (municipio, var. anual real)"
    },
    {
      "municipio": "Culiacán",
      "estado": "Sinaloa",
      "cvegeo": "25006",
      "lat": 24.80881,
      "lng": -107.39376,
      "plusvalia": 10.2,
      "ciclo": "Expansión fuerte",
      "oportunidad": "Alta",
      "fuente": "SHF 1T 2026 (municipio, var. anual real)"
    },
    {
      "municipio": "García",
      "estado": "Nuevo León",
      "cvegeo": "19018",
      "lat": 25.80049,
      "lng": -100.58547,
      "plusvalia": 10.1,
      "ciclo": "Expansión fuerte",
      "oportunidad": "Alta",
      "fuente": "SHF 1T 2026 (municipio, var. anual real)"
    },
    {
      "municipio": "Chihuahua",
      "estado": "Chihuahua",
      "cvegeo": "08019",
      "lat": 28.63679,
      "lng": -106.07631,
      "plusvalia": 9.8,
      "ciclo": "Expansión",
      "oportunidad": "Alta",
      "fuente": "SHF 1T 2026 (municipio, var. anual real)"
    },
    {
      "municipio": "Temixco",
      "estado": "Morelos",
      "cvegeo": "17018",
      "lat": 18.84527,
      "lng": -99.22414,
      "plusvalia": 9.5,
      "ciclo": "Expansión",
      "oportunidad": "Alta",
      "fuente": "SHF 1T 2026 (municipio, var. anual real)"
    },
    {
      "municipio": "Hermosillo",
      "estado": "Sonora",
      "cvegeo": "26030",
      "lat": 29.0749,
      "lng": -110.95853,
      "plusvalia": 9.4,
      "ciclo": "Expansión",
      "oportunidad": "Alta",
      "fuente": "SHF 1T 2026 (municipio, var. anual real)"
    },
    {
      "municipio": "Emiliano Zapata",
      "estado": "Morelos",
      "cvegeo": "17008",
      "lat": 18.84098,
      "lng": -99.18324,
      "plusvalia": 9.3,
      "ciclo": "Expansión",
      "oportunidad": "Alta",
      "fuente": "SHF 1T 2026 (municipio, var. anual real)"
    },
    {
      "municipio": "Villa de Álvarez",
      "estado": "Colima",
      "cvegeo": "06010",
      "lat": 19.26478,
      "lng": -103.73676,
      "plusvalia": 9.2,
      "ciclo": "Expansión",
      "oportunidad": "Alta",
      "fuente": "SHF 1T 2026 (municipio, var. anual real)"
    },
    {
      "municipio": "Apodaca",
      "estado": "Nuevo León",
      "cvegeo": "19006",
      "lat": 25.78129,
      "lng": -100.18923,
      "plusvalia": 9.2,
      "ciclo": "Expansión",
      "oportunidad": "Alta",
      "fuente": "SHF 1T 2026 (municipio, var. anual real)"
    },
    {
      "municipio": "Puebla",
      "estado": "Puebla",
      "cvegeo": "21114",
      "lat": 19.04399,
      "lng": -98.1975,
      "plusvalia": 9.1,
      "ciclo": "Expansión",
      "oportunidad": "Alta",
      "fuente": "SHF 1T 2026 (municipio, var. anual real)"
    },
    {
      "municipio": "Tizayuca",
      "estado": "Hidalgo",
      "cvegeo": "13069",
      "lat": 19.84109,
      "lng": -98.98158,
      "plusvalia": 9.0,
      "ciclo": "Expansión",
      "oportunidad": "Alta",
      "fuente": "SHF 1T 2026 (municipio, var. anual real)"
    },
    {
      "municipio": "Tapachula",
      "estado": "Chiapas",
      "cvegeo": "07089",
      "lat": 14.91107,
      "lng": -92.26432,
      "plusvalia": 8.8,
      "ciclo": "Expansión",
      "oportunidad": "Alta",
      "fuente": "SHF 1T 2026 (municipio, var. anual real)"
    },
    {
      "municipio": "Torreón",
      "estado": "Coahuila",
      "cvegeo": "05035",
      "lat": 25.54175,
      "lng": -103.45306,
      "plusvalia": 8.4,
      "ciclo": "Expansión",
      "oportunidad": "Alta",
      "fuente": "SHF 1T 2026 (municipio, var. anual real)"
    },
    {
      "municipio": "Soledad de Graciano Sánchez",
      "estado": "San Luis Potosí",
      "cvegeo": "24035",
      "lat": 22.18788,
      "lng": -100.93727,
      "plusvalia": 8.4,
      "ciclo": "Expansión",
      "oportunidad": "Alta",
      "fuente": "SHF 1T 2026 (municipio, var. anual real)"
    },
    {
      "municipio": "Zihuatanejo de Azueta",
      "estado": "Guerrero",
      "cvegeo": "12038",
      "lat": 17.65046,
      "lng": -101.54818,
      "plusvalia": 8.3,
      "ciclo": "Expansión",
      "oportunidad": "Alta",
      "fuente": "SHF 1T 2026 (municipio, var. anual real)"
    },
    {
      "municipio": "Celaya",
      "estado": "Guanajuato",
      "cvegeo": "11007",
      "lat": 20.52152,
      "lng": -100.81357,
      "plusvalia": 8.2,
      "ciclo": "Expansión",
      "oportunidad": "Alta",
      "fuente": "SHF 1T 2026 (municipio, var. anual real)"
    },
    {
      "municipio": "León",
      "estado": "Guanajuato",
      "cvegeo": "11020",
      "lat": 21.12197,
      "lng": -101.6832,
      "plusvalia": 8.2,
      "ciclo": "Expansión",
      "oportunidad": "Alta",
      "fuente": "SHF 1T 2026 (municipio, var. anual real)"
    },
    {
      "municipio": "Manzanillo",
      "estado": "Colima",
      "cvegeo": "06007",
      "lat": 19.05321,
      "lng": -104.31638,
      "plusvalia": 8.1,
      "ciclo": "Expansión",
      "oportunidad": "Alta",
      "fuente": "SHF 1T 2026 (municipio, var. anual real)"
    },
    {
      "municipio": "Acapulco de Juárez",
      "estado": "Guerrero",
      "cvegeo": "12001",
      "lat": 16.86187,
      "lng": -99.88656,
      "plusvalia": 8.0,
      "ciclo": "Expansión",
      "oportunidad": "Alta",
      "fuente": "SHF 1T 2026 (municipio, var. anual real)"
    },
    {
      "municipio": "Tuxtla Gutiérrez",
      "estado": "Chiapas",
      "cvegeo": "07101",
      "lat": 16.75397,
      "lng": -93.11519,
      "plusvalia": 7.7,
      "ciclo": "Expansión",
      "oportunidad": "Media",
      "fuente": "SHF 1T 2026 (municipio, var. anual real)"
    },
    {
      "municipio": "Saltillo",
      "estado": "Coahuila",
      "cvegeo": "05030",
      "lat": 25.42167,
      "lng": -100.99972,
      "plusvalia": 7.7,
      "ciclo": "Expansión",
      "oportunidad": "Media",
      "fuente": "SHF 1T 2026 (municipio, var. anual real)"
    },
    {
      "municipio": "Campeche",
      "estado": "Campeche",
      "cvegeo": "04002",
      "lat": 19.84481,
      "lng": -90.53965,
      "plusvalia": 7.6,
      "ciclo": "Expansión",
      "oportunidad": "Media",
      "fuente": "SHF 1T 2026 (municipio, var. anual real)"
    },
    {
      "municipio": "Zumpango",
      "estado": "México",
      "cvegeo": "15120",
      "lat": 19.79712,
      "lng": -99.10063,
      "plusvalia": 7.6,
      "ciclo": "Expansión",
      "oportunidad": "Media",
      "fuente": "SHF 1T 2026 (municipio, var. anual real)"
    },
    {
      "municipio": "Monterrey",
      "estado": "Nuevo León",
      "cvegeo": "19039",
      "lat": 25.6647,
      "lng": -100.31089,
      "plusvalia": 7.6,
      "ciclo": "Expansión",
      "oportunidad": "Media",
      "fuente": "SHF 1T 2026 (municipio, var. anual real)"
    },
    {
      "municipio": "Tlacolula de Matamoros",
      "estado": "Oaxaca",
      "cvegeo": "20551",
      "lat": 16.95562,
      "lng": -96.47921,
      "plusvalia": 7.6,
      "ciclo": "Expansión",
      "oportunidad": "Media",
      "fuente": "SHF 1T 2026 (municipio, var. anual real)"
    },
    {
      "municipio": "Veracruz",
      "estado": "Veracruz",
      "cvegeo": "30193",
      "lat": 19.19032,
      "lng": -96.15303,
      "plusvalia": 7.6,
      "ciclo": "Expansión",
      "oportunidad": "Media",
      "fuente": "SHF 1T 2026 (municipio, var. anual real)"
    },
    {
      "municipio": "El Marqués",
      "estado": "Querétaro",
      "cvegeo": "22011",
      "lat": 20.60657,
      "lng": -100.3311,
      "plusvalia": 7.4,
      "ciclo": "Madurez",
      "oportunidad": "Media",
      "fuente": "SHF 1T 2026 (municipio, var. anual real)"
    },
    {
      "municipio": "Carmen",
      "estado": "Campeche",
      "cvegeo": "04003",
      "lat": 18.63779,
      "lng": -91.83645,
      "plusvalia": 7.1,
      "ciclo": "Madurez",
      "oportunidad": "Media",
      "fuente": "SHF 1T 2026 (municipio, var. anual real)"
    },
    {
      "municipio": "San Luis Potosí",
      "estado": "San Luis Potosí",
      "cvegeo": "24028",
      "lat": 22.15166,
      "lng": -100.97696,
      "plusvalia": 7.1,
      "ciclo": "Madurez",
      "oportunidad": "Media",
      "fuente": "SHF 1T 2026 (municipio, var. anual real)"
    },
    {
      "municipio": "Coatzacoalcos",
      "estado": "Veracruz",
      "cvegeo": "30039",
      "lat": 18.13788,
      "lng": -94.453,
      "plusvalia": 7.1,
      "ciclo": "Madurez",
      "oportunidad": "Media",
      "fuente": "SHF 1T 2026 (municipio, var. anual real)"
    },
    {
      "municipio": "Nacajuca",
      "estado": "Tabasco",
      "cvegeo": "27013",
      "lat": 18.16886,
      "lng": -93.02004,
      "plusvalia": 6.5,
      "ciclo": "Madurez",
      "oportunidad": "Media",
      "fuente": "SHF 1T 2026 (municipio, var. anual real)"
    },
    {
      "municipio": "Querétaro",
      "estado": "Querétaro",
      "cvegeo": "22014",
      "lat": 20.59339,
      "lng": -100.38996,
      "plusvalia": 6.4,
      "ciclo": "Madurez",
      "oportunidad": "Media",
      "fuente": "SHF 1T 2026 (municipio, var. anual real)"
    },
    {
      "municipio": "Corregidora",
      "estado": "Querétaro",
      "cvegeo": "22006",
      "lat": 20.55244,
      "lng": -100.44588,
      "plusvalia": 6.2,
      "ciclo": "Madurez",
      "oportunidad": "Media",
      "fuente": "SHF 1T 2026 (municipio, var. anual real)"
    },
    {
      "municipio": "Guadalupe",
      "estado": "Zacatecas",
      "cvegeo": "32017",
      "lat": 22.74678,
      "lng": -102.5188,
      "plusvalia": 6.2,
      "ciclo": "Madurez",
      "oportunidad": "Media",
      "fuente": "SHF 1T 2026 (municipio, var. anual real)"
    },
    {
      "municipio": "Tecámac",
      "estado": "México",
      "cvegeo": "15081",
      "lat": 19.71021,
      "lng": -98.96714,
      "plusvalia": 6.0,
      "ciclo": "Saturación",
      "oportunidad": "Media",
      "fuente": "SHF 1T 2026 (municipio, var. anual real)"
    },
    {
      "municipio": "Gómez Palacio",
      "estado": "Durango",
      "cvegeo": "10007",
      "lat": 25.57011,
      "lng": -103.49642,
      "plusvalia": 5.8,
      "ciclo": "Saturación",
      "oportunidad": "Media",
      "fuente": "SHF 1T 2026 (municipio, var. anual real)"
    },
    {
      "municipio": "San Juan Bautista Tuxtepec",
      "estado": "Oaxaca",
      "cvegeo": "20184",
      "lat": 18.08116,
      "lng": -96.11848,
      "plusvalia": 5.7,
      "ciclo": "Saturación",
      "oportunidad": "Media",
      "fuente": "SHF 1T 2026 (municipio, var. anual real)"
    },
    {
      "municipio": "Centro",
      "estado": "Tabasco",
      "cvegeo": "27004",
      "lat": 17.98784,
      "lng": -92.91942,
      "plusvalia": 5.5,
      "ciclo": "Saturación",
      "oportunidad": "Media",
      "fuente": "SHF 1T 2026 (municipio, var. anual real)"
    },
    {
      "municipio": "Iztapalapa",
      "estado": "Ciudad de México",
      "cvegeo": "09007",
      "lat": 19.359,
      "lng": -99.09262,
      "plusvalia": 5.2,
      "ciclo": "Saturación",
      "oportunidad": "Media",
      "fuente": "SHF 1T 2026 (municipio, var. anual real)"
    },
    {
      "municipio": "Toluca",
      "estado": "México",
      "cvegeo": "15106",
      "lat": 19.29349,
      "lng": -99.65732,
      "plusvalia": 5.0,
      "ciclo": "Saturación",
      "oportunidad": "Media",
      "fuente": "SHF 1T 2026 (municipio, var. anual real)"
    },
    {
      "municipio": "Gustavo A. Madero",
      "estado": "Ciudad de México",
      "cvegeo": "09005",
      "lat": 19.48295,
      "lng": -99.11347,
      "plusvalia": 4.9,
      "ciclo": "Saturación",
      "oportunidad": "Media",
      "fuente": "SHF 1T 2026 (municipio, var. anual real)"
    },
    {
      "municipio": "Zacatecas",
      "estado": "Zacatecas",
      "cvegeo": "32056",
      "lat": 22.7761,
      "lng": -102.57184,
      "plusvalia": 4.8,
      "ciclo": "Saturación",
      "oportunidad": "Media",
      "fuente": "SHF 1T 2026 (municipio, var. anual real)"
    },
    {
      "municipio": "Cuauhtémoc",
      "estado": "Ciudad de México",
      "cvegeo": "09015",
      "lat": 19.44165,
      "lng": -99.15188,
      "plusvalia": 4.7,
      "ciclo": "Saturación",
      "oportunidad": "Media",
      "fuente": "SHF 1T 2026 (municipio, var. anual real)"
    },
    {
      "municipio": "Metepec",
      "estado": "México",
      "cvegeo": "15054",
      "lat": 19.25242,
      "lng": -99.60449,
      "plusvalia": 4.6,
      "ciclo": "Saturación",
      "oportunidad": "Media",
      "fuente": "SHF 1T 2026 (municipio, var. anual real)"
    },
    {
      "municipio": "Apizaco",
      "estado": "Tlaxcala",
      "cvegeo": "29005",
      "lat": 19.41634,
      "lng": -98.14061,
      "plusvalia": 4.6,
      "ciclo": "Saturación",
      "oportunidad": "Media",
      "fuente": "SHF 1T 2026 (municipio, var. anual real)"
    },
    {
      "municipio": "Benito Juárez",
      "estado": "Ciudad de México",
      "cvegeo": "09014",
      "lat": 19.37199,
      "lng": -99.15785,
      "plusvalia": 4.5,
      "ciclo": "Saturación",
      "oportunidad": "Media",
      "fuente": "SHF 1T 2026 (municipio, var. anual real)"
    },
    {
      "municipio": "Miguel Hidalgo",
      "estado": "Ciudad de México",
      "cvegeo": "09016",
      "lat": 19.40727,
      "lng": -99.19075,
      "plusvalia": 4.4,
      "ciclo": "Saturación",
      "oportunidad": "Media",
      "fuente": "SHF 1T 2026 (municipio, var. anual real)"
    },
    {
      "municipio": "Tlaxcala",
      "estado": "Tlaxcala",
      "cvegeo": "29033",
      "lat": 19.31655,
      "lng": -98.23764,
      "plusvalia": 4.4,
      "ciclo": "Saturación",
      "oportunidad": "Media",
      "fuente": "SHF 1T 2026 (municipio, var. anual real)"
    },
    {
      "municipio": "Durango",
      "estado": "Durango",
      "cvegeo": "10005",
      "lat": 24.02399,
      "lng": -104.67019,
      "plusvalia": 4.2,
      "ciclo": "Saturación",
      "oportunidad": "Media",
      "fuente": "SHF 1T 2026 (municipio, var. anual real)"
    }
  ]
}